[
  {
    "id": 28062019,
    "date": "2019-06-28",
    "name": "Sunny Tech",
    "location": {
      "name": "Montpelier, France",
      "lat": 43.6100219,
      "lng": 3.8741615
    },
    "roles": [
      "speaker"
    ],
    "link": "https://sunny-tech.io/",
    "talk": {
      "title": "J'ai fait un plan à 3 avec VSCode"
    }
  },
  {
    "id": 26062019,
    "date": "2019-06-26",
    "name": "Insider Dev Tour",
    "location": {
      "name": "Lyon, France",
      "lat": 45.7477518,
      "lng": 4.8601244
    },
    "roles": [
      "speaker"
    ],
    "link": "https://developer.microsoft.com/en-us/collective/events/insider-dev-tour",
    "talk": {
      "title": "Allo Lyon, ici Seattle.. Et si on codait ensemble avec VSCode?"
    }
  },
  {
    "id": 12062019,
    "date": "2019-06-12",
    "name": "DevRel Salon",
    "location": {
      "name": "Paris, France",
      "lat": 48.87733,
      "lng": 2.3277525
    },
    "roles": [
      "speaker"
    ],
    "link": "https://www.meetup.com/fr-FR/Paris-DevRel-Salon/events/261673716/",
    "talk": {
      "title": "How to attract people to your booth as a sponsor"
    }
  },
   {
    "id": 23052019,
    "date": "2019-05-23",
    "name": "MIXIT",
    "location": {
      "name": "Lyon, France",
      "lat": 45.7477518,
      "lng": 4.8601244
    },
    "roles": [
      "speaker"
    ],
    "link": "https://mixitconf.org/en/",
    "talk": {
      "title": "VSCode: Mode collaboratif activé"
    }
  },
  {
    "id": 17042019,
    "date": "2019-04-17",
    "name": "Devoxx France",
    "location": {
      "name": "Paris, France",
      "lat": 48.87733,
      "lng": 2.3277525
    },
    "roles": [
      "speaker"
    ],
    "link": "https://www.devoxx.fr/",
    "talk": {
      "title": "VSCode: Mode collaboratif activé",
       "video": "https://www.youtube.com/watch?v=UtIUZdBDALs"
    }
  },
   {
    "id": 20032019,
    "date": "2019-03-20",
    "name": "Breizhc@mp 2019",
    "location": {
      "name": "Rennes, France",
      "lat": 48.1173595,
      "lng": 1.6410981
    },
    "roles": [
      "speaker"
    ],
    "link": "http://www.breizhcamp.org/",
    "talk": {
      "title": "VSCode: Mode collaboratif activé"
    }
  },
  {
    "id": 13032019,
    "date": "2019-03-12",
    "name": "MUG Tours",
    "location": {
      "name": "Tours, France",
      "lat": 47.363297,
      "lng": 0.6703936
    },
    "roles": [
      "speaker"
    ],
    "link": "https://www.meetup.com/fr-FR/Meetup-Mug-Tours/events/259475056/",
    "talk": {
      "title": "Pimp your vscode"
    }
  },
  {
    "id": 11032019,
    "date": "2019-03-11",
    "name": "Microsoft User Group Rennes",
    "location": {
      "name": "Rennes, France",
      "lat": 48.113808,
      "lng": -1.675499
    },
    "roles": [
      "speaker"
    ],
    "link": "https://www.meetup.com/fr-FR/Microsoft-User-Group-Rennes/events/259496682/",
    "talk": {
      "title": "Pimp your vscode",
      "video": "https://youtu.be/F2fKy7XKQ58?t=126"
    }
  },
  {
    "id": 8022018,
    "date": "2018-02-08",
    "name": "DevFest Paris",
    "location": {
      "name": "Paris, France",
      "lat": 48.87733,
      "lng": 2.3277525
    },
    "roles": [
      "organizer"
    ],
    "link": "http://devfest.gdgparis.com/"
  },
  {
    "id": 8112018,
    "date": "2018-11-08",
    "name": "DevFest Toulouse",
    "location": {
      "name": "Toulouse, France",
      "lat": 43.6110956,
      "lng": 1.4332799
    },
    "roles": [
      "speaker"
    ],
    "link": "https://devfesttoulouse.fr/",
    "talk": {
      "title": "Et si on parlait de l'accessibilité du web ?",
      "video": "https://www.youtube.com/watch?v=1oKEcDdYANY"
    }
  },
  {
    "id": 18102018,
    "date": "2018-10-18",
    "name": "DevFest Nantes",
    "location": {
      "name": "Nantes, France",
      "lat": 47.212967,
      "lng": -1.544833
    },
    "roles": [
      "speaker"
    ],
    "link": "https://devfest.gdgnantes.com/schedule/day1?sessionId=139",
    "talk": {
      "title": "What's up TC39?",
      "video": "https://www.youtube.com/watch?v=kF_P8YmmZN4"
    }
  },
  {
    "id": 15102018,
    "date": "2018-10-15",
    "name": "Botfuel.io Developers",
    "location": {
      "name": "Paris, France",
      "lat": 48.87733,
      "lng": 2.3277525
    },
    "roles": [
      "speaker"
    ],
    "link": "https://www.meetup.com/fr-FR/Botfuel-io-developers/events/254991321/",
    "talk": {
      "title": "Votre premier bot avec Botfuel.io"
    }
  },
  {
    "id": 25092018,
    "date": "2018-09-25",
    "name": "Chatbots Paris",
    "location": {
      "name": "Paris, France",
      "lat": 48.87733,
      "lng": 2.3277525
    },
    "roles": [
      "speaker"
    ],
    "link": "https://www.meetup.com/Chatbots-Paris/events/254345516/",
    "talk": {
      "title": "Créez un Bot avec Botfuel.io et déployez le sur Google Assistant"
    }
  },
  {
    "id": 21092018,
    "date": "2018-09-21",
    "name": "DevFest Nairobi",
    "location": {
      "name": "Nairobi, Kenya",
      "lat": 1.3028618,
      "lng": 36.7073124
    },
    "roles": [
      "speaker"
    ],
    "link": "https://www.meetup.com/fr-FR/GDG-Nairobi/events/252860861/",
    "talk": {
      "title": "This is your captain speaking, please put your phone in airplane mode !"
    }
  },
  {
    "id": 20092018,
    "date": "2018-09-20",
    "name": "Sub Saharan Africa Community Summit",
    "location": {
      "name": "Nairobi, Kenya",
      "lat": 1.3028618,
      "lng": 36.7073124
    },
    "roles": [
      "speaker"
    ],
    "link": "https://events.withgoogle.com/2018-ssa-community-summit/#content",
    "talk": {
      "title": "Community management"
    }
  },
  {
    "id": 27082018,
    "date": "2018-08-27",
    "name": "GDG Paris",
    "location": {
      "name": "Paris, France",
      "lat": 48.87733,
      "lng": 2.3277525
    },
    "roles": [
      "speaker"
    ],
    "link": "https://www.meetup.com/fr-FR/gdg-paris/events/253480990/",
    "talk": {
      "title": "Web accessibility - How to make your website accessible to everyone?"
    }
  },
  {
    "id": 26052018,
    "date": "2018-05-26",
    "name": "Vivatech Paris",
    "location": {
      "name": "Paris, France",
      "lat": 48.87733,
      "lng": 2.3277525
    },
    "roles": [
      "jury"
    ],
    "link": "https://www.meetup.com/fr-FR/AngularX-Paris/events/250846803/",
    "talk": {
      "title": "Angular FightCode #3"
    }
  },
  {
    "id": 18042018,
    "date": "2018-04-18",
    "name": "Devoxx France",
    "talk": {
      "title": "Atelier Design Sprint"
    },
    "location": {
      "name": "Paris, France",
      "lat": 48.87733,
      "lng": 2.3277525
    },
    "roles": [
      "mentor"
    ],
    "link": "https://www.devoxx.fr/"
  },
  {
    "id": 17042018,
    "date": "2018-04-17",
    "name": "Station F",
    "talk": {
      "title": "Lighthouse: mesurer et améliorer votre performance web"
    },
    "location": {
      "name": "Paris, France",
      "lat": 48.87733,
      "lng": 2.3277525
    },
    "roles": [
      "speaker"
    ]
  },
  {
    "id": 16042018,
    "date": "2018-04-16",
    "name": "Station F",
    "talk": {
      "title": "Atelier Design Sprint"
    },
    "location": {
      "name": "Paris, France",
      "lat": 48.87733,
      "lng": 2.3277525
    },
    "roles": [
      "mentor"
    ]
  },
  {
    "id": 3042018,
    "date": "2018-04-03",
    "name": "Workshop Chatbot",
    "location": {
      "name": "Paris, France",
      "lat": 48.87733,
      "lng": 2.3277525
    },
    "roles": [
      "mentor"
    ],
    "talk": {
      "title": "Dialogflow et Cloud Functions for Firebase"
    }
  },
  {
    "id": 30032018,
    "date": "2018-03-30",
    "name": "Google",
    "talk": {
      "title": "Atelier Design Sprint"
    },
    "location": {
      "name": "Paris, France",
      "lat": 48.87733,
      "lng": 2.3277525
    },
    "roles": [
      "mentor"
    ]
  },
  {
    "id": 1303018,
    "date": "2018-03-13",
    "name": "Progressive Web App Roadshow Paris",
    "location": {
      "name": "Paris, France",
      "lat": 48.87733,
      "lng": 2.3277525
    },
    "roles": [
      "mentor"
    ],
    "link": "https://events.withgoogle.com/pwa-roadshow-paris/"
  },
  {
    "id": 3022018,
    "date": "2018-02-03",
    "name": "ngGirls @ ngEurope",
    "location": {
      "name": "Paris, France",
      "lat": 48.87733,
      "lng": 2.3277525
    },
    "roles": [
      "mentor"
    ],
    "link": "http://ng-girls.org/ng-europe/",
    "talk": {
      "title": "One day workshop on Angular"
    }
  },
  {
    "id": 1122017,
    "date": "2017-12-01",
    "name": "DevFest Malaga",
    "location": {
      "name": "Malaga, Spain",
      "lat": 36.7648321,
      "lng": -4.4241892
    },
    "roles": [
      "speaker"
    ],
    "link": "https://devfest.gdgmalaga.com/",
    "talk": {
      "title": "This is your captain speaking, please put your phone in airplane mode !"
    }
  },
  {
    "id": 101120171,
    "date": "2017-11-10",
    "name": "BDX I/O",
    "location": {
      "name": "Bordeaux, France",
      "lat": 44.807047,
      "lng": -0.605526
    },
    "roles": [
      "speaker"
    ],
    "link": "https://www.bdx.io/",
    "talk": {
      "title": "Ici votre commandant de bord, on passe en mode avion !"
    }
  },
  {
    "id": 10112017,
    "date": "2017-11-10",
    "name": "BDX I/O",
    "location": {
      "name": "Bordeaux, France",
      "lat": 44.807047,
      "lng": -0.605526
    },
    "roles": [
      "speaker"
    ],
    "link": "https://www.bdx.io/",
    "talk": {
      "title": "What's up TC39 ?",
      "video": "https://www.youtube.com/watch?v=Kj8NuMHUvN4"
    }
  },
  {
    "id": 28092017,
    "date": "2017-09-28",
    "name": "DevFest Toulouse",
    "location": {
      "name": "Toulouse, France",
      "lat": 43.6489983,
      "lng": 1.3727472
    },
    "roles": [
      "speaker"
    ],
    "link": "https://devfesttoulouse.fr/",
    "talk": {
      "title": "Ici votre commandant de bord, on passe en mode avion !"
    }
  },
  {
    "id": 4072017,
    "date": "2017-07-04",
    "name": "PWA Paris",
    "location": {
      "name": "Paris, France",
      "lat": 48.87733,
      "lng": 2.3277525
    },
    "roles": [
      "speaker"
    ],
    "link": "https://www.meetup.com/fr-FR/Paris-Progressive-Web-App/events/240918412/",
    "talk": {
      "title": "This is your captain speaking, please put your phone in airplane mode",
      "video": "https://www.youtube.com/watch?v=Rwa1qhDjkoo"
    }
  },
  {
    "id": 17062017,
    "date": "2017-06-17",
    "name": "Vivatech Paris",
    "location": {
      "name": "Paris, France",
      "lat": 48.87733,
      "lng": 2.3277525
    },
    "roles": [
      "jury"
    ],
    "link": "http://fightcode.io/",
    "talk": {
      "title": "Angular FightCode #2",
      "video": "https://www.youtube.com/watch?v=JXmykgqlOgk"
    }
  },
  {
    "id": 19042017,
    "date": "2017-04-19",
    "name": "BreizhC@mp 2017",
    "location": {
      "name": "Rennes, France",
      "lat": 48.1173595,
      "lng": 1.6410981
    },
    "roles": [
      "speaker"
    ],
    "link": "http://www.breizhcamp.org/",
    "talk": {
      "title": "Ici le commandant de bord, on passe en mode avion !"
    }
  },
  {
    "id": 7032017,
    "date": "2017-03-07",
    "name": "Paris Progressive Web Apps",
    "location": {
      "name": "Paris, France",
      "lat": 48.87733,
      "lng": 2.3277525
    },
    "roles": [
      "speaker"
    ],
    "link": "https://www.meetup.com/Paris-Progressive-Web-App/events/237610476/?_locale=fr-FR",
    "talk": {
      "title": "PWA: Pourquoi, pour qui?",
      "video": "https://www.youtube.com/watch?v=w8WbIJlLMpQ"
    }
  },
  {
    "id": 2022017,
    "date": "2017-02-02",
    "name": "AngularX Paris",
    "location": {
      "name": "Paris, France",
      "lat": 48.87733,
      "lng": 2.3277525
    },
    "roles": [
      "jury"
    ],
    "link": "http://fightcode.io/",
    "talk": {
      "title": "FightCode",
      "video": "https://www.youtube.com/watch?v=u5RN5UxZezM"
    }
  },
  {
    "id": 9112016,
    "date": "2016-11-24",
    "name": "DevFest Nantes",
    "location": {
      "name": "Nantes, France",
      "lat": 47.2382006,
      "lng": -1.6307599
    },
    "roles": [
      "speaker"
    ],
    "link": "https://devfest.gdgnantes.com/",
    "talk": {
      "title": "Votre application web qui marche même sans réseau, c'est possible!",
      "video": "https://www.youtube.com/watch?v=j2u4SY5HAV4"
    }
  },
  {
    "id": 24112016,
    "date": "2016-11-24",
    "name": "Codeurs en Seine",
    "location": {
      "name": "Rouen, France",
      "lat": 49.4584259,
      "lng": 1.0658052
    },
    "roles": [
      "speaker"
    ],
    "link": "https://www.codeursenseine.com/2016/",
    "talk": {
      "title": "Votre application web qui marche même sans réseau, c'est possible!",
      "video": "https://www.infoq.com/fr/presentations/codeurs-en-seine-olivier-leplus-app-web-sans-reseau"
    }
  },
  {
    "id": 8112016,
    "date": "2016-11-08",
    "name": "HumanTalks",
    "location": {
      "name": "Paris, France",
      "lat": 48.87733,
      "lng": 2.3277525
    },
    "roles": [
      "speaker"
    ],
    "link": "http://humantalks.com/",
    "talk": {
      "title": "www: The Web Will Win",
      "video": "https://www.youtube.com/watch?v=vcPBVa5E80w"
    }
  },
  {
    "id": 3112016,
    "date": "2016-11-03",
    "name": "DevFest Toulouse",
    "location": {
      "name": "Toulouse, France",
      "lat": 43.6489983,
      "lng": 1.3727472
    },
    "roles": [
      "speaker"
    ],
    "link": "https://devfesttoulouse.fr/",
    "talk": {
      "title": "Don't call me just a website anymore. I am a Progressive Web App"
    }
  },
  {
    "id": 21102016,
    "date": "2016-10-21",
    "name": "Bdx.io",
    "location": {
      "name": "Bordeaux, France",
      "lat": 44.807047,
      "lng": -0.605526
    },
    "roles": [
      "speaker"
    ],
    "link": "http://www.bdx.io/",
    "talk": {
      "title": "Please welcome Angular 2",
      "video": "https://www.youtube.com/watch?v=TGSjRPhagE4"
    }
  },
  {
    "id": 8102016,
    "date": "2016-10-08",
    "year": "2016",
    "name": "CLSx France",
    "location": {
      "name": "Paris, France",
      "lat": 48.87733,
      "lng": 2.3277525
    },
    "roles": [
      "organizer"
    ],
    "link": "http://clsxfrance.org/",
    "talk": {
      "title": "Community Leadership Summit [x]"
    }
  },
  {
    "id": 7072016,
    "date": "2016-07-07",
    "name": "GDG Tours",
    "location": {
      "name": "Tours, France",
      "lat": 47.3943623,
      "lng": 0.6249002
    },
    "roles": [
      "speaker"
    ],
    "link": "http://www.meetup.com/fr-FR/GDG-Tours/events/232192629/",
    "talk": {
      "title": "Don't call me just a website anymore. I am a Progressive Web App"
    }
  },
  {
    "id": 6072016,
    "date": "2016-07-06",
    "year": "2016",
    "name": "GDG Lille",
    "location": {
      "name": "Lille, France",
      "lat": 50.6887388,
      "lng": 3.1492016
    },
    "roles": [
      "speaker"
    ],
    "link": "http://www.meetup.com/fr-FR/GDG-Lille/events/232191905/",
    "talk": {
      "title": "Don't call me just a website anymore. I am a Progressive Web App"
    }
  },
  {
    "id": 5072017,
    "date": "2016-07-05",
    "year": "2016",
    "name": "Faubourg Numerique / GDG Hi-Pic",
    "location": {
      "name": "St Quentin, France",
      "lat": 49.8476836,
      "lng": 3.2440442
    },
    "roles": [
      "speaker"
    ],
    "link": "http://faubourgnumerique.com/",
    "talk": {
      "title": "Don't call me just a website anymore. I am a Progressive Web App"
    }
  },
  {
    "id": 4062016,
    "date": "2016-06-05",
    "name": "ExFest 2016",
    "location": {
      "name": "Caceres, Spain",
      "lat": 39.4796487,
      "lng": -6.3429493
    },
    "roles": [
      "speaker"
    ],
    "link": "http://exfest.es/",
    "talk": {
      "title": "Progressive Web Apps codelab - 2h"
    }
  },
  {
    "id": 3062016,
    "date": "2016-06-03",
    "year": "2016",
    "name": "HackerSchool",
    "location": {
      "name": "Lisbon, Portubal",
      "lat": 38.7437395,
      "lng": -9.2302438
    },
    "roles": [
      "speaker"
    ],
    "link": "http://www.meetup.com/fr-FR/gdglisbon/events/229999648/?eventId=229999648",
    "talk": {
      "title": "Progressive Web Apps codelab - 2h"
    }
  },
  {
    "id": 1022016,
    "date": "2016-02-01",
    "name": "GDG Nice launch",
    "location": {
      "name": "Nice, France",
      "lat": 43.6958407,
      "lng": 7.2679375
    },
    "roles": [
      "speaker"
    ],
    "link": "http://www.meetup.com/fr-FR/GDGNice/events/228029090/",
    "talk": {
      "title": "Discover Angular2 with a livecoding"
    }
  },
  {
    "id": 1072015,
    "date": "2015-07-01",
    "name": "GDG Paris",
    "location": {
      "name": "Paris, France",
      "lat": 48.87733,
      "lng": 2.3277525
    },
    "roles": [
      "organizer",
      "speaker"
    ],
    "link": "https://www.meetup.com/fr-FR/gdg-paris/events/223469172/",
    "talk": {
      "title": "I/O Rex : Les inventions impressionnantes de l’équipe ATAP"
    }
  },
  {
    "id": 30062015,
    "date": "2015-01-30",
    "name": "GDG DevFest Paris",
    "location": {
      "name": "Paris, France",
      "lat": 48.87733,
      "lng": 2.3277525
    },
    "roles": [
      "organizer"
    ],
    "link": "http://2015.devfest.gdgparis.com/"
  },
  {
    "id": 15122015,
    "date": "2015-12-05",
    "name": "Google Startup Launchpad Toulouse",
    "location": {
      "name": "Toulouse, France",
      "lat": 43.6112304,
      "lng": 1.4560435
    },
    "roles": [
      "organizer"
    ],
    "link": "https://events.withgoogle.com/launchpad-week-toulouse/",
    "talk": {
      "video": "https://www.youtube.com/watch?v=ApQoDTkaQIg"
    }
  }
]
